<markers>
    <marker id="1"  name="Western Station Apartments" address="6700 Sandshell Blvd. Fort Worth, TX 76137 " lat="32.864165" lng="-97.309641"></marker>
    
    <marker id="1"  name="BoomerJack's Grill and Bar" address="6701 Fossil Bluff DrFort Worth, TX 76137" lat="32.86291669968941" lng="-97.31303215026855"></marker>
    
    <marker id="2"  name="The Golf Club Fossil Creek" address="3401 Clubgate DrFort Worth, TX 76137" lat="32.85576095151211" lng="-97.30998516082764"></marker>

    <marker id="3"  name="Shell" address="1600 Watauga Smithfield RdBlue Mound, TX 76131" lat="32.86120441954236" lng="-97.34227895736694"></marker>

    <marker id="4"  name="ATM" address="1601 Western Center BlvdFort Worth, TX 76131" lat="32.86338531796811" lng="-97.3402726650238"></marker>
    
    <marker id="5"  name="Legend Bank" address="3001 Western Center BlvdFort Worth, TX 76131" lat="32.86158292642081"
     lng="-97.31677114963531"></marker>

    <marker id="6"  name="Texas Health Emergency Room" address="2710 Western Center BlvdFort Worth, TX 76131" lat="32.86068171691192" lng="-97.32084274291992"></marker>
    
    <marker id="7"  name="Chase Bank" address="4501 Western Center BlvdFort Worth, TX 76137" lat="32.861537866162834" lng="-97.28950381278992"></marker>
    
    <marker id="8"  name="Clayton Child Care Inc" address="7900 N Riverside DrFort Worth, TX 76137" lat="32.88145226888387" lng="-97.30560779571533"></marker>
    
    <marker id="9"  name="Trang Nguyen Day Care" address="Park Creek Circle NorthFort Worth, TX" lat="32.870417" lng="-97.28912200000002"></marker>
    
    <marker id="10" name="South Hulen KinderCare" address="7224 Kingswood DrFort Worth, TX 76133" lat="32.64110949213928" lng="-97.39358425140381"></marker>
    
    <marker id="11" name="Saginaw High School" address="800 N Blue Mound RdFort Worth, TX 76131" lat="32.86924283752852" lng="-97.3449182510376"></marker>
    
    <marker id="12" name="North Oaks Middle School" address="4800 Jordan Park DrHaltom City, TX 76117" lat="32.832721651127365" lng="-97.27880716323853"></marker>
    
    <marker id="13" name="Park Glen Elementary School" address="5100 Glen Canyon RdFort Worth, TX 76137" lat="32.88102879646589" lng="-97.27492332458496"></marker>
    
    <marker id="14" name="Richland College" address="12800 Abrams RdDallas, TX 75243" lat="32.92204216285554" lng="-96.72920644283295"></marker>
    
    <marker id="15" name="LifeCare Hospitals of Fort Worth" address="6201 Overton Ridge BlvdFort Worth, TX 76132" lat="32.67910906882966" lng="-97.42116808891296"></marker>
    
    <marker id="16" name="Down Syndrome Partnership of North Texas" address="1300 W Lancaster AveFort Worth, TX 76102" lat="32.747836643775074" lng="-97.34035715460777"></marker>
    
    <marker id="17" name="Summerfields Park" address="6720 Spoonwood LnFort Worth, TX 76137" lat="32.86506150923523" lng="-97.29528665542603"></marker>
    
    <marker id="18" name="Whites Branch Park" address="5290 Western Center BlvdHaltom City, TX 76137" lat="32.86059159545741" lng="-97.2698163986206"></marker>
    
    <marker id="19" name="Denny's" address="6480 N Fwy Service Rd EFort Worth, TX 76137" lat="32.85976247377969" lng="-97.31322526931763"></marker>
    
    <marker id="20" name="Braum's Ice Cream and Burger Restaurant" address="6450 N Fwy Service Rd EFort Worth, TX 76137" lat="32.85930284864115" lng="-97.31315016746521"></marker>
    
    <marker id="21" name="Jack in the Box" address="3008 Basswood BlvdFort Worth, TX 76137" lat="32.87214441929181" lng="-97.31455564498901"></marker>
    
    <marker id="22" name="Regal Fossil Creek 11" address="6100 N Fwy Service Rd EFort Worth, TX 76137" lat="32.85454423666008" lng="-97.3117446899414"></marker>
    
    <marker id="23" name="Streetside Classics" address="5400 Sandshell DrFort Worth, TX 76137" lat="32.84410684163054" lng="-97.30805397033691"></marker>
</markers>